[
  {
    "id":1,
    "province":1,
    "name":" آذرشهر",
    "lat":37.75888900,
    "lon":45.97833300
  },
  {
    "id":2,
    "province":1,
    "name":" اسکو",
    "lat":37.91583300,
    "lon":46.12361100
  },
  {
    "id":3,
    "province":1,
    "name":" اهر",
    "lat":38.48943050,
    "lon":47.06835750
  },
  {
    "id":4,
    "province":1,
    "name":" بستان آباد",
    "lat":37.85000000,
    "lon":46.83333300
  },
  {
    "id":5,
    "province":1,
    "name":" بناب",
    "lat":37.34027800,
    "lon":46.05611100
  },
  {
    "id":6,
    "province":1,
    "name":" تبریز",
    "lat":38.06666700,
    "lon":46.30000000
  },
  {
    "id":7,
    "province":1,
    "name":" جلفا",
    "lat":38.94027800,
    "lon":45.63083300
  },
  {
    "id":8,
    "province":1,
    "name":" چار اویماق",
    "lat":37.12990520,
    "lon":47.02456860
  },
  {
    "id":9,
    "province":1,
    "name":" سراب",
    "lat":37.94083300,
    "lon":47.53666700
  },
  {
    "id":10,
    "province":1,
    "name":" شبستر",
    "lat":38.18027800,
    "lon":45.70277800
  },
  {
    "id":11,
    "province":1,
    "name":" عجبشیر",
    "lat":37.47750000,
    "lon":45.89416700
  },
  {
    "id":12,
    "province":1,
    "name":" کلیبر",
    "lat":38.86944400,
    "lon":47.03555600
  },
  {
    "id":13,
    "province":1,
    "name":" مراغه",
    "lat":37.38916700,
    "lon":46.23750000
  },
  {
    "id":14,
    "province":1,
    "name":" مرند",
    "lat":38.42511700,
    "lon":45.76963600
  },
  {
    "id":15,
    "province":1,
    "name":" ملکان",
    "lat":37.14562500,
    "lon":46.16852420
  },
  {
    "id":16,
    "province":1,
    "name":" میانه",
    "lat":37.42111100,
    "lon":47.71500000
  },
  {
    "id":17,
    "province":1,
    "name":" ورزقان",
    "lat":38.50972200,
    "lon":46.65444400
  },
  {
    "id":18,
    "province":1,
    "name":" هریس",
    "lat":29.77518250,
    "lon":-95.31025050
  },
  {
    "id":19,
    "province":1,
    "name":"هشترود",
    "lat":37.47777800,
    "lon":47.05083300
  },
  {
    "id":20,
    "province":2,
    "name":" ارومیه",
    "lat":37.55527800,
    "lon":45.07250000
  },
  {
    "id":21,
    "province":2,
    "name":" اشنویه",
    "lat":37.03972200,
    "lon":45.09833300
  },
  {
    "id":22,
    "province":2,
    "name":" بوکان",
    "lat":36.52111100,
    "lon":46.20888900
  },
  {
    "id":23,
    "province":2,
    "name":" پیرانشهر",
    "lat":36.69444400,
    "lon":45.14166700
  },
  {
    "id":24,
    "province":2,
    "name":" تکاب",
    "lat":36.40083300,
    "lon":47.11333300
  },
  {
    "id":25,
    "province":2,
    "name":" چالدران",
    "lat":39.06498370,
    "lon":44.38446790
  },
  {
    "id":26,
    "province":2,
    "name":" خوی",
    "lat":38.55027800,
    "lon":44.95222200
  },
  {
    "id":27,
    "province":2,
    "name":" سردشت",
    "lat":36.15527800,
    "lon":45.47888900
  },
  {
    "id":28,
    "province":2,
    "name":" سلماس",
    "lat":38.19722200,
    "lon":44.76527800
  },
  {
    "id":29,
    "province":2,
    "name":" شاهین دژ",
    "lat":36.67916700,
    "lon":46.56694400
  },
  {
    "id":30,
    "province":2,
    "name":" ماکو",
    "lat":39.29527800,
    "lon":44.51666700
  },
  {
    "id":31,
    "province":2,
    "name":" مهاباد",
    "lat":36.76305600,
    "lon":45.72222200
  },
  {
    "id":32,
    "province":2,
    "name":" میاندوآب",
    "lat":36.96944400,
    "lon":46.10277800
  },
  {
    "id":33,
    "province":2,
    "name":" نقده",
    "lat":36.95527800,
    "lon":45.38805600
  },
  {
    "id":34,
    "province":3,
    "name":" اردبیل",
    "lat":38.48532760,
    "lon":47.89112090
  },
  {
    "id":35,
    "province":3,
    "name":" بیله سوار",
    "lat":39.35677750,
    "lon":47.94907650
  },
  {
    "id":36,
    "province":3,
    "name":" پارس آباد",
    "lat":39.64833300,
    "lon":47.91750000
  },
  {
    "id":37,
    "province":3,
    "name":" خلخال",
    "lat":37.61888900,
    "lon":48.52583300
  },
  {
    "id":38,
    "province":3,
    "name":" کوثر",
    "lat":31.86768660,
    "lon":54.33798020
  },
  {
    "id":39,
    "province":3,
    "name":" گرمی",
    "lat":39.03722670,
    "lon":47.92770210
  },
  {
    "id":40,
    "province":3,
    "name":" مشگین",
    "lat":38.39888900,
    "lon":47.68194400
  },
  {
    "id":41,
    "province":3,
    "name":" نمین",
    "lat":38.42694400,
    "lon":48.48388900
  },
  {
    "id":42,
    "province":3,
    "name":" نیر",
    "lat":38.03472200,
    "lon":47.99861100
  },
  {
    "id":43,
    "province":4,
    "name":" آران و بیدگل",
    "lat":34.05777800,
    "lon":51.48416700
  },
  {
    "id":44,
    "province":4,
    "name":" اردستان",
    "lat":33.37611100,
    "lon":52.36944400
  },
  {
    "id":45,
    "province":4,
    "name":" اصفهان",
    "lat":32.65462750,
    "lon":51.66798260
  },
  {
    "id":46,
    "province":4,
    "name":" برخوار و میمه",
    "lat":32.83333300,
    "lon":51.77500000
  },
  {
    "id":47,
    "province":4,
    "name":" تیران و کرون",
    "lat":null,
    "lon":null
  },
  {
    "id":48,
    "province":4,
    "name":" چادگان",
    "lat":32.76833300,
    "lon":50.62861100
  },
  {
    "id":49,
    "province":4,
    "name":" خمینی شهر",
    "lat":32.70027800,
    "lon":51.52111100
  },
  {
    "id":50,
    "province":4,
    "name":" خوانسار",
    "lat":33.22055600,
    "lon":50.31500000
  },
  {
    "id":51,
    "province":4,
    "name":" سمیرم",
    "lat":31.39883460,
    "lon":51.56759300
  },
  {
    "id":52,
    "province":4,
    "name":" شاهین شهر و میمه",
    "lat":33.12718520,
    "lon":51.51500770
  },
  {
    "id":53,
    "province":4,
    "name":" شهر رضا",
    "lat":36.29244520,
    "lon":59.56771490
  },
  {
    "id":54,
    "province":4,
    "name":"دهاقان",
    "lat":31.94000000,
    "lon":51.64777800
  },
  {
    "id":55,
    "province":4,
    "name":" فریدن",
    "lat":33.02148290,
    "lon":50.30690880
  },
  {
    "id":56,
    "province":4,
    "name":" فریدون شهر",
    "lat":32.94111100,
    "lon":50.12111100
  },
  {
    "id":57,
    "province":4,
    "name":" فلاورجان",
    "lat":32.55527800,
    "lon":51.50972200
  },
  {
    "id":58,
    "province":4,
    "name":" کاشان",
    "lat":33.98503580,
    "lon":51.40996250
  },
  {
    "id":59,
    "province":4,
    "name":" گلپایگان",
    "lat":33.45361100,
    "lon":50.28833300
  },
  {
    "id":60,
    "province":4,
    "name":" لنجان",
    "lat":32.47501680,
    "lon":51.30508510
  },
  {
    "id":61,
    "province":4,
    "name":" مبارکه",
    "lat":32.34638900,
    "lon":51.50444400
  },
  {
    "id":62,
    "province":4,
    "name":" نائین",
    "lat":32.85994450,
    "lon":53.08783210
  },
  {
    "id":63,
    "province":4,
    "name":" نجف آباد",
    "lat":32.63242310,
    "lon":51.36799140
  },
  {
    "id":64,
    "province":4,
    "name":" نطنز",
    "lat":33.51333300,
    "lon":51.91638900
  },
  {
    "id":65,
    "province":5,
    "name":" ساوجبلاق",
    "lat":38.37879410,
    "lon":47.49743590
  },
  {
    "id":66,
    "province":5,
    "name":" کرج",
    "lat":35.84001880,
    "lon":50.93909060
  },
  {
    "id":67,
    "province":5,
    "name":" نظرآباد",
    "lat":35.95222200,
    "lon":50.60750000
  },
  {
    "id":68,
    "province":5,
    "name":"طالقان",
    "lat":33.27291710,
    "lon":52.19853140
  },
  {
    "id":69,
    "province":6,
    "name":" آبدانان",
    "lat":32.99250000,
    "lon":47.41972200
  },
  {
    "id":70,
    "province":6,
    "name":" ایلام",
    "lat":33.29576180,
    "lon":46.67053400
  },
  {
    "id":71,
    "province":6,
    "name":" ایوان",
    "lat":33.82722200,
    "lon":46.30972200
  },
  {
    "id":72,
    "province":6,
    "name":" دره شهر",
    "lat":33.13972200,
    "lon":47.37611100
  },
  {
    "id":73,
    "province":6,
    "name":" دهلران",
    "lat":32.69416700,
    "lon":47.26777800
  },
  {
    "id":74,
    "province":6,
    "name":" شیران و چرداول",
    "lat":33.69383480,
    "lon":46.74784930
  },
  {
    "id":75,
    "province":6,
    "name":" مهران",
    "lat":33.12222200,
    "lon":46.16472200
  },
  {
    "id":76,
    "province":7,
    "name":" بوشهر",
    "lat":28.92338370,
    "lon":50.82031400
  },
  {
    "id":77,
    "province":7,
    "name":" تنگستان",
    "lat":28.98375470,
    "lon":50.83307080
  },
  {
    "id":78,
    "province":7,
    "name":" جم",
    "lat":27.82777800,
    "lon":52.32694400
  },
  {
    "id":79,
    "province":7,
    "name":" دشتستان",
    "lat":29.26666700,
    "lon":51.21666700
  },
  {
    "id":80,
    "province":7,
    "name":" دشتی",
    "lat":35.78451450,
    "lon":51.43479610
  },
  {
    "id":81,
    "province":7,
    "name":" دیر",
    "lat":27.84000000,
    "lon":51.93777800
  },
  {
    "id":82,
    "province":7,
    "name":" دیلم",
    "lat":30.11826320,
    "lon":50.22612270
  },
  {
    "id":83,
    "province":7,
    "name":" کنگان",
    "lat":27.83704370,
    "lon":52.06454730
  },
  {
    "id":84,
    "province":7,
    "name":" گناوه",
    "lat":29.57916700,
    "lon":50.51694400
  },
  {
    "id":85,
    "province":8,
    "name":" اسلام شهر",
    "lat":35.54458050,
    "lon":51.23024570
  },
  {
    "id":86,
    "province":8,
    "name":" پاکدشت",
    "lat":35.46689130,
    "lon":51.68606250
  },
  {
    "id":87,
    "province":8,
    "name":" تهران",
    "lat":35.69611100,
    "lon":51.42305600
  },
  {
    "id":88,
    "province":8,
    "name":" دماوند",
    "lat":35.94674940,
    "lon":52.12754810
  },
  {
    "id":89,
    "province":8,
    "name":" رباط کریم",
    "lat":35.48472200,
    "lon":51.08277800
  },
  {
    "id":90,
    "province":8,
    "name":" ری",
    "lat":48.34446630,
    "lon":-103.16518450
  },
  {
    "id":91,
    "province":8,
    "name":" شمیرانات",
    "lat":35.95480210,
    "lon":51.59916430
  },
  {
    "id":92,
    "province":8,
    "name":" شهریار",
    "lat":35.65972200,
    "lon":51.05916700
  },
  {
    "id":93,
    "province":8,
    "name":" فیروزکوه",
    "lat":35.43867100,
    "lon":60.80938700
  },
  {
    "id":94,
    "province":8,
    "name":" ورامین",
    "lat":35.32524070,
    "lon":51.64719870
  },
  {
    "id":95,
    "province":9,
    "name":" اردل",
    "lat":31.99972200,
    "lon":50.66166700
  },
  {
    "id":96,
    "province":9,
    "name":" بروجن",
    "lat":31.96527800,
    "lon":51.28722200
  },
  {
    "id":97,
    "province":9,
    "name":" شهرکرد",
    "lat":32.32555600,
    "lon":50.86444400
  },
  {
    "id":98,
    "province":9,
    "name":" فارسان",
    "lat":32.25820660,
    "lon":50.57050880
  },
  {
    "id":99,
    "province":9,
    "name":" کوهرنگ",
    "lat":32.55583640,
    "lon":51.67872520
  },
  {
    "id":100,
    "province":9,
    "name":" لردگان",
    "lat":31.51027800,
    "lon":50.82944400
  },
  {
    "id":101,
    "province":10,
    "name":" بیرجند",
    "lat":32.86490390,
    "lon":59.22624720
  },
  {
    "id":102,
    "province":10,
    "name":" درمیان",
    "lat":33.03394050,
    "lon":60.11847970
  },
  {
    "id":103,
    "province":10,
    "name":" سرایان",
    "lat":33.86027800,
    "lon":58.52166700
  },
  {
    "id":104,
    "province":10,
    "name":" سر بیشه",
    "lat":32.57555600,
    "lon":59.79833300
  },
  {
    "id":105,
    "province":10,
    "name":" فردوس",
    "lat":34.01861100,
    "lon":58.17222200
  },
  {
    "id":106,
    "province":10,
    "name":" قائن",
    "lat":33.72666700,
    "lon":59.18444400
  },
  {
    "id":107,
    "province":10,
    "name":" نهبندان",
    "lat":31.54194400,
    "lon":60.03638900
  },
  {
    "id":108,
    "province":11,
    "name":" برد سکن",
    "lat":35.26083300,
    "lon":57.96972200
  },
  {
    "id":109,
    "province":11,
    "name":" بجستان",
    "lat":34.51638900,
    "lon":58.18444400
  },
  {
    "id":110,
    "province":11,
    "name":" تایباد",
    "lat":34.74000000,
    "lon":60.77555600
  },
  {
    "id":111,
    "province":11,
    "name":" تحت جلگه",
    "lat":null,
    "lon":null
  },
  {
    "id":112,
    "province":11,
    "name":" تربت جام",
    "lat":35.24388900,
    "lon":60.62250000
  },
  {
    "id":113,
    "province":11,
    "name":" تربت حیدریه",
    "lat":35.27388900,
    "lon":59.21944400
  },
  {
    "id":114,
    "province":11,
    "name":" چناران",
    "lat":36.64555600,
    "lon":59.12111100
  },
  {
    "id":115,
    "province":11,
    "name":" جغتای",
    "lat":36.57888530,
    "lon":57.25121500
  },
  {
    "id":116,
    "province":11,
    "name":" جوین",
    "lat":36.63622380,
    "lon":57.50799120
  },
  {
    "id":117,
    "province":11,
    "name":" خلیل آباد",
    "lat":35.25583300,
    "lon":58.28638900
  },
  {
    "id":118,
    "province":11,
    "name":" خواف",
    "lat":34.57638900,
    "lon":60.14083300
  },
  {
    "id":119,
    "province":11,
    "name":" درگز",
    "lat":37.44444400,
    "lon":59.10805600
  },
  {
    "id":120,
    "province":11,
    "name":" رشتخوار",
    "lat":34.97472200,
    "lon":59.62361100
  },
  {
    "id":121,
    "province":11,
    "name":" زاوه",
    "lat":35.27473220,
    "lon":59.46777270
  },
  {
    "id":122,
    "province":11,
    "name":" سبزوار",
    "lat":36.21518230,
    "lon":57.66782280
  },
  {
    "id":123,
    "province":11,
    "name":" سرخس",
    "lat":36.54500000,
    "lon":61.15777800
  },
  {
    "id":124,
    "province":11,
    "name":" فریمان",
    "lat":35.70694400,
    "lon":59.85000000
  },
  {
    "id":125,
    "province":11,
    "name":" قوچان",
    "lat":37.10611100,
    "lon":58.50944400
  },
  {
    "id":126,
    "province":11,
    "name":"طرقبه شاندیز",
    "lat":36.35488410,
    "lon":59.43839550
  },
  {
    "id":127,
    "province":11,
    "name":" کاشمر",
    "lat":35.23833300,
    "lon":58.46555600
  },
  {
    "id":128,
    "province":11,
    "name":" کلات",
    "lat":34.19833300,
    "lon":58.54444400
  },
  {
    "id":129,
    "province":11,
    "name":" گناباد",
    "lat":34.35277800,
    "lon":58.68361100
  },
  {
    "id":130,
    "province":11,
    "name":" مشهد",
    "lat":36.26046230,
    "lon":59.61675490
  },
  {
    "id":131,
    "province":11,
    "name":" مه ولات",
    "lat":35.02108290,
    "lon":58.78181160
  },
  {
    "id":132,
    "province":11,
    "name":" نیشابور",
    "lat":36.21408650,
    "lon":58.79609150
  },
  {
    "id":133,
    "province":12,
    "name":" اسفراین",
    "lat":37.07638900,
    "lon":57.51000000
  },
  {
    "id":134,
    "province":12,
    "name":" بجنورد",
    "lat":37.47500000,
    "lon":57.33333300
  },
  {
    "id":135,
    "province":12,
    "name":" جاجرم",
    "lat":36.95000000,
    "lon":56.38000000
  },
  {
    "id":136,
    "province":12,
    "name":" شیروان",
    "lat":37.40923570,
    "lon":57.92761840
  },
  {
    "id":137,
    "province":12,
    "name":" فاروج",
    "lat":37.23111100,
    "lon":58.21888900
  },
  {
    "id":138,
    "province":12,
    "name":" مانه و سملقان",
    "lat":37.66206140,
    "lon":56.74120700
  },
  {
    "id":139,
    "province":13,
    "name":" آبادان",
    "lat":30.34729600,
    "lon":48.29340040
  },
  {
    "id":140,
    "province":13,
    "name":" امیدیه",
    "lat":30.74583300,
    "lon":49.70861100
  },
  {
    "id":141,
    "province":13,
    "name":" اندیمشک",
    "lat":32.46000000,
    "lon":48.35916700
  },
  {
    "id":142,
    "province":13,
    "name":" اهواز",
    "lat":31.31832720,
    "lon":48.67061870
  },
  {
    "id":143,
    "province":13,
    "name":" ایذه",
    "lat":31.83416700,
    "lon":49.86722200
  },
  {
    "id":144,
    "province":13,
    "name":" باغ ملک",
    "lat":32.39472060,
    "lon":51.59653280
  },
  {
    "id":145,
    "province":13,
    "name":" بندرماهشهر",
    "lat":30.55888900,
    "lon":49.19805600
  },
  {
    "id":146,
    "province":13,
    "name":" بهبهان",
    "lat":30.59583300,
    "lon":50.24166700
  },
  {
    "id":147,
    "province":13,
    "name":" خرمشهر",
    "lat":30.42562190,
    "lon":48.18911850
  },
  {
    "id":148,
    "province":13,
    "name":" دزفول",
    "lat":32.38307770,
    "lon":48.42358410
  },
  {
    "id":149,
    "province":13,
    "name":" دشت آزادگان",
    "lat":31.55805600,
    "lon":48.18083300
  },
  {
    "id":150,
    "province":13,
    "name":" رامشیر",
    "lat":30.89565210,
    "lon":49.40947010
  },
  {
    "id":151,
    "province":13,
    "name":" رامهرمز",
    "lat":31.28000000,
    "lon":49.60361100
  },
  {
    "id":152,
    "province":13,
    "name":" شادگان",
    "lat":30.64972200,
    "lon":48.66472200
  },
  {
    "id":153,
    "province":13,
    "name":" شوش",
    "lat":32.19416700,
    "lon":48.24361100
  },
  {
    "id":154,
    "province":13,
    "name":" شوشتر",
    "lat":32.04555600,
    "lon":48.85666700
  },
  {
    "id":155,
    "province":13,
    "name":" گتوند",
    "lat":32.25138900,
    "lon":48.81611100
  },
  {
    "id":156,
    "province":13,
    "name":" لالی",
    "lat":32.32888900,
    "lon":49.09361100
  },
  {
    "id":157,
    "province":13,
    "name":" مسجد سلیمان",
    "lat":31.93638900,
    "lon":49.30388900
  },
  {
    "id":158,
    "province":13,
    "name":" هندیجان",
    "lat":30.23638900,
    "lon":49.71194400
  },
  {
    "id":159,
    "province":14,
    "name":" ابهر",
    "lat":36.14666700,
    "lon":49.21805600
  },
  {
    "id":160,
    "province":14,
    "name":" ایجرود",
    "lat":36.41609280,
    "lon":48.24692490
  },
  {
    "id":161,
    "province":14,
    "name":" خدابنده",
    "lat":36.11472200,
    "lon":48.59111100
  },
  {
    "id":162,
    "province":14,
    "name":" خرمدره",
    "lat":36.20305600,
    "lon":49.18694400
  },
  {
    "id":163,
    "province":14,
    "name":" زنجان",
    "lat":36.50181850,
    "lon":48.39881860
  },
  {
    "id":164,
    "province":14,
    "name":" طارم",
    "lat":28.18042870,
    "lon":55.74533670
  },
  {
    "id":165,
    "province":14,
    "name":" ماه نشان",
    "lat":36.74444400,
    "lon":47.67250000
  },
  {
    "id":166,
    "province":15,
    "name":" دامغان",
    "lat":36.16833300,
    "lon":54.34805600
  },
  {
    "id":167,
    "province":15,
    "name":" سمنان",
    "lat":35.22555850,
    "lon":54.43421380
  },
  {
    "id":168,
    "province":15,
    "name":" شاهرود",
    "lat":36.41805600,
    "lon":54.97638900
  },
  {
    "id":169,
    "province":15,
    "name":" گرمسار",
    "lat":35.21833300,
    "lon":52.34083300
  },
  {
    "id":170,
    "province":15,
    "name":" مهدی شهر",
    "lat":35.70000000,
    "lon":53.35000000
  },
  {
    "id":171,
    "province":16,
    "name":" ایرانشهر",
    "lat":27.20250000,
    "lon":60.68472200
  },
  {
    "id":172,
    "province":16,
    "name":" چابهار",
    "lat":25.29194400,
    "lon":60.64305600
  },
  {
    "id":173,
    "province":16,
    "name":" خاش",
    "lat":28.21666700,
    "lon":61.20000000
  },
  {
    "id":174,
    "province":16,
    "name":" دلگان",
    "lat":27.60773570,
    "lon":59.47209040
  },
  {
    "id":175,
    "province":16,
    "name":" زابل",
    "lat":31.02861100,
    "lon":61.50111100
  },
  {
    "id":176,
    "province":16,
    "name":" زاهدان",
    "lat":29.49638900,
    "lon":60.86277800
  },
  {
    "id":177,
    "province":16,
    "name":" زهک",
    "lat":30.89388900,
    "lon":61.68027800
  },
  {
    "id":178,
    "province":16,
    "name":" سراوان",
    "lat":27.37083300,
    "lon":62.33416700
  },
  {
    "id":179,
    "province":16,
    "name":" سرباز",
    "lat":26.63083300,
    "lon":61.25638900
  },
  {
    "id":180,
    "province":16,
    "name":" کنارک",
    "lat":25.36027800,
    "lon":60.39944400
  },
  {
    "id":181,
    "province":16,
    "name":" نیکشهر",
    "lat":26.41847190,
    "lon":60.21107520
  },
  {
    "id":182,
    "province":17,
    "name":" آباده",
    "lat":31.16083300,
    "lon":52.65055600
  },
  {
    "id":183,
    "province":17,
    "name":" ارسنجان",
    "lat":29.91250000,
    "lon":53.30861100
  },
  {
    "id":184,
    "province":17,
    "name":" استهبان",
    "lat":29.12666700,
    "lon":54.04222200
  },
  {
    "id":185,
    "province":17,
    "name":" اقلید",
    "lat":30.89888900,
    "lon":52.68666700
  },
  {
    "id":186,
    "province":17,
    "name":" بوانات",
    "lat":30.48559070,
    "lon":53.59333040
  },
  {
    "id":187,
    "province":17,
    "name":" پاسارگاد",
    "lat":30.20330750,
    "lon":53.17901000
  },
  {
    "id":188,
    "province":17,
    "name":" جهرم",
    "lat":28.50000000,
    "lon":53.56055600
  },
  {
    "id":189,
    "province":17,
    "name":" خرم بید",
    "lat":32.67083450,
    "lon":51.64702790
  },
  {
    "id":190,
    "province":17,
    "name":" خنج",
    "lat":27.89138900,
    "lon":53.43444400
  },
  {
    "id":191,
    "province":17,
    "name":" داراب",
    "lat":28.75194400,
    "lon":54.54444400
  },
  {
    "id":192,
    "province":17,
    "name":" زرین دشت",
    "lat":28.35450470,
    "lon":54.41780060
  },
  {
    "id":193,
    "province":17,
    "name":" سپیدان",
    "lat":30.24252820,
    "lon":51.99241850
  },
  {
    "id":194,
    "province":17,
    "name":" شیراز",
    "lat":29.59176770,
    "lon":52.58369820
  },
  {
    "id":195,
    "province":17,
    "name":" فراشبند",
    "lat":28.87138900,
    "lon":52.09166700
  },
  {
    "id":196,
    "province":17,
    "name":" فسا",
    "lat":28.93833300,
    "lon":53.64833300
  },
  {
    "id":197,
    "province":17,
    "name":" فیروزآباد",
    "lat":28.84388900,
    "lon":52.57083300
  },
  {
    "id":198,
    "province":17,
    "name":" قیر و کارزین",
    "lat":28.42998000,
    "lon":53.09516000
  },
  {
    "id":199,
    "province":17,
    "name":" کازرون",
    "lat":29.61944400,
    "lon":51.65416700
  },
  {
    "id":200,
    "province":17,
    "name":" لارستان",
    "lat":27.68111100,
    "lon":54.34027800
  },
  {
    "id":201,
    "province":17,
    "name":" لامرد",
    "lat":27.34237710,
    "lon":53.18035580
  },
  {
    "id":202,
    "province":17,
    "name":" مرودشت",
    "lat":29.87416700,
    "lon":52.80250000
  },
  {
    "id":203,
    "province":17,
    "name":" ممسنی",
    "lat":31.96003450,
    "lon":50.51226520
  },
  {
    "id":204,
    "province":17,
    "name":" مهر",
    "lat":27.55599310,
    "lon":52.88472050
  },
  {
    "id":205,
    "province":17,
    "name":" نی ریز",
    "lat":29.19888900,
    "lon":54.32777800
  },
  {
    "id":206,
    "province":18,
    "name":" آبیک",
    "lat":36.04000000,
    "lon":50.53111100
  },
  {
    "id":207,
    "province":18,
    "name":" البرز",
    "lat":35.99604670,
    "lon":50.92892460
  },
  {
    "id":208,
    "province":18,
    "name":" بوئین زهرا",
    "lat":35.76694400,
    "lon":50.05777800
  },
  {
    "id":209,
    "province":18,
    "name":" تاکستان",
    "lat":36.06972200,
    "lon":49.69583300
  },
  {
    "id":210,
    "province":18,
    "name":" قزوین",
    "lat":36.08813170,
    "lon":49.85472660
  },
  {
    "id":211,
    "province":19,
    "name":" قم",
    "lat":34.63994430,
    "lon":50.87594190
  },
  {
    "id":212,
    "province":20,
    "name":" بانه",
    "lat":35.99859990,
    "lon":45.88234280
  },
  {
    "id":213,
    "province":20,
    "name":" بیجار",
    "lat":32.73527800,
    "lon":59.46666700
  },
  {
    "id":214,
    "province":20,
    "name":" دیواندره",
    "lat":35.91388900,
    "lon":47.02388900
  },
  {
    "id":215,
    "province":20,
    "name":" سروآباد",
    "lat":35.31250000,
    "lon":46.36694400
  },
  {
    "id":216,
    "province":20,
    "name":" سقز",
    "lat":36.24638900,
    "lon":46.26638900
  },
  {
    "id":217,
    "province":20,
    "name":" سنندج",
    "lat":35.32187480,
    "lon":46.98616470
  },
  {
    "id":218,
    "province":20,
    "name":" قروه",
    "lat":35.16789340,
    "lon":47.80382720
  },
  {
    "id":219,
    "province":20,
    "name":" کامیاران",
    "lat":34.79555600,
    "lon":46.93555600
  },
  {
    "id":220,
    "province":20,
    "name":" مریوان",
    "lat":35.52694400,
    "lon":46.17638900
  },
  {
    "id":221,
    "province":21,
    "name":" بافت",
    "lat":29.23305600,
    "lon":56.60222200
  },
  {
    "id":222,
    "province":21,
    "name":" بردسیر",
    "lat":29.92750000,
    "lon":56.57222200
  },
  {
    "id":223,
    "province":21,
    "name":" بم",
    "lat":29.10611100,
    "lon":58.35694400
  },
  {
    "id":224,
    "province":21,
    "name":" جیرفت",
    "lat":28.67511240,
    "lon":57.73715690
  },
  {
    "id":225,
    "province":21,
    "name":" راور",
    "lat":31.26555600,
    "lon":56.80555600
  },
  {
    "id":226,
    "province":21,
    "name":" رفسنجان",
    "lat":30.40666700,
    "lon":55.99388900
  },
  {
    "id":227,
    "province":21,
    "name":" رودبار جنوب",
    "lat":36.82412890,
    "lon":49.42372740
  },
  {
    "id":228,
    "province":21,
    "name":" زرند",
    "lat":30.81277800,
    "lon":56.56388900
  },
  {
    "id":229,
    "province":21,
    "name":" سیرجان",
    "lat":29.45866760,
    "lon":55.67140510
  },
  {
    "id":230,
    "province":21,
    "name":" شهر بابک",
    "lat":30.11638900,
    "lon":55.11861100
  },
  {
    "id":231,
    "province":21,
    "name":" عنبرآباد",
    "lat":28.47833330,
    "lon":57.84138890
  },
  {
    "id":232,
    "province":21,
    "name":" قلعه گنج",
    "lat":27.52361100,
    "lon":57.88111100
  },
  {
    "id":233,
    "province":21,
    "name":" کرمان",
    "lat":29.48500890,
    "lon":57.64390480
  },
  {
    "id":234,
    "province":21,
    "name":" کوهبنان",
    "lat":31.41027800,
    "lon":56.28250000
  },
  {
    "id":235,
    "province":21,
    "name":" کهنوج",
    "lat":27.94676030,
    "lon":57.70625720
  },
  {
    "id":236,
    "province":21,
    "name":" منوجان",
    "lat":27.44756260,
    "lon":57.50516160
  },
  {
    "id":237,
    "province":22,
    "name":" اسلام آباد غرب",
    "lat":33.72938820,
    "lon":73.09314610
  },
  {
    "id":238,
    "province":22,
    "name":" پاوه",
    "lat":35.04333300,
    "lon":46.35638900
  },
  {
    "id":239,
    "province":22,
    "name":" ثلاث باباجانی",
    "lat":34.73583710,
    "lon":46.14939690
  },
  {
    "id":240,
    "province":22,
    "name":" جوانرود",
    "lat":34.80666700,
    "lon":46.48861100
  },
  {
    "id":241,
    "province":22,
    "name":" دالاهو",
    "lat":34.28416700,
    "lon":46.24222200
  },
  {
    "id":242,
    "province":22,
    "name":" روانسر",
    "lat":34.71208920,
    "lon":46.65129980
  },
  {
    "id":243,
    "province":22,
    "name":" سرپل ذهاب",
    "lat":34.46111100,
    "lon":45.86277800
  },
  {
    "id":244,
    "province":22,
    "name":" سنقر",
    "lat":34.78361100,
    "lon":47.60027800
  },
  {
    "id":245,
    "province":22,
    "name":" صحنه",
    "lat":34.48138900,
    "lon":47.69083300
  },
  {
    "id":246,
    "province":22,
    "name":" قصر شیرین",
    "lat":34.51590310,
    "lon":45.57768590
  },
  {
    "id":247,
    "province":22,
    "name":" کرمانشاه",
    "lat":34.45762330,
    "lon":46.67053400
  },
  {
    "id":248,
    "province":22,
    "name":" کنگاور",
    "lat":34.50416700,
    "lon":47.96527800
  },
  {
    "id":249,
    "province":22,
    "name":" گیلان غرب",
    "lat":34.14222200,
    "lon":45.92027800
  },
  {
    "id":250,
    "province":22,
    "name":" هرسین",
    "lat":34.27191490,
    "lon":47.60461830
  },
  {
    "id":251,
    "province":23,
    "name":" بویر احمد",
    "lat":30.72458600,
    "lon":50.84563230
  },
  {
    "id":252,
    "province":23,
    "name":" بهمئی",
    "lat":null,
    "lon":null
  },
  {
    "id":253,
    "province":23,
    "name":" دنا",
    "lat":30.95166660,
    "lon":51.43750000
  },
  {
    "id":254,
    "province":23,
    "name":" کهگیلویه",
    "lat":null,
    "lon":null
  },
  {
    "id":255,
    "province":23,
    "name":" گچساران",
    "lat":30.35000000,
    "lon":50.80000000
  },
  {
    "id":256,
    "province":24,
    "name":" آزادشهر",
    "lat":37.08694400,
    "lon":55.17388900
  },
  {
    "id":257,
    "province":24,
    "name":" آق قلا",
    "lat":37.01388900,
    "lon":54.45500000
  },
  {
    "id":258,
    "province":24,
    "name":" بندر گز",
    "lat":36.77496500,
    "lon":53.94617490
  },
  {
    "id":259,
    "province":24,
    "name":" بندر ترکمن",
    "lat":36.90166700,
    "lon":54.07083300
  },
  {
    "id":260,
    "province":24,
    "name":" رامیان",
    "lat":37.01611100,
    "lon":55.14111100
  },
  {
    "id":261,
    "province":24,
    "name":" علی آباد",
    "lat":36.30822600,
    "lon":74.61954740
  },
  {
    "id":262,
    "province":24,
    "name":" کرد کوی",
    "lat":36.79414260,
    "lon":54.11027400
  },
  {
    "id":263,
    "province":24,
    "name":" کلاله",
    "lat":37.38083300,
    "lon":55.49166700
  },
  {
    "id":264,
    "province":24,
    "name":" گرگان",
    "lat":36.84564270,
    "lon":54.43933630
  },
  {
    "id":265,
    "province":24,
    "name":" گنبد کاووس",
    "lat":37.25000000,
    "lon":55.16722200
  },
  {
    "id":266,
    "province":24,
    "name":" مینو دشت",
    "lat":37.22888900,
    "lon":55.37472200
  },
  {
    "id":267,
    "province":25,
    "name":" آستارا",
    "lat":38.42916700,
    "lon":48.87194400
  },
  {
    "id":268,
    "province":25,
    "name":" آستانه اشرفیه",
    "lat":37.25980220,
    "lon":49.94366210
  },
  {
    "id":269,
    "province":25,
    "name":" املش",
    "lat":37.09163340,
    "lon":50.18693770
  },
  {
    "id":270,
    "province":25,
    "name":" بندر انزلی",
    "lat":37.47244670,
    "lon":49.45873120
  },
  {
    "id":271,
    "province":25,
    "name":" رشت",
    "lat":37.28083300,
    "lon":49.58305600
  },
  {
    "id":272,
    "province":25,
    "name":" رضوانشهر",
    "lat":37.55067500,
    "lon":49.14098010
  },
  {
    "id":273,
    "province":25,
    "name":" رودبار",
    "lat":36.82412890,
    "lon":49.42372740
  },
  {
    "id":274,
    "province":25,
    "name":" رودسر",
    "lat":37.13784150,
    "lon":50.28361990
  },
  {
    "id":275,
    "province":25,
    "name":" سیاهکل",
    "lat":37.15277800,
    "lon":49.87083300
  },
  {
    "id":276,
    "province":25,
    "name":" شفت",
    "lat":39.63063100,
    "lon":-78.92954200
  },
  {
    "id":277,
    "province":25,
    "name":" صومعه سرا",
    "lat":37.31166700,
    "lon":49.32194400
  },
  {
    "id":278,
    "province":25,
    "name":" طوالش",
    "lat":37.00000000,
    "lon":48.42222220
  },
  {
    "id":279,
    "province":25,
    "name":" فومن",
    "lat":37.22388900,
    "lon":49.31250000
  },
  {
    "id":280,
    "province":25,
    "name":" لاهیجان",
    "lat":37.20722200,
    "lon":50.00388900
  },
  {
    "id":281,
    "province":25,
    "name":" لنگرود",
    "lat":37.19694400,
    "lon":50.15361100
  },
  {
    "id":282,
    "province":25,
    "name":" ماسال",
    "lat":37.36211850,
    "lon":49.13147690
  },
  {
    "id":283,
    "province":26,
    "name":" ازنا",
    "lat":33.45583300,
    "lon":49.45555600
  },
  {
    "id":284,
    "province":26,
    "name":" الیگودرز",
    "lat":33.40055600,
    "lon":49.69500000
  },
  {
    "id":285,
    "province":26,
    "name":" بروجرد",
    "lat":33.89419930,
    "lon":48.76703300
  },
  {
    "id":286,
    "province":26,
    "name":" پلدختر",
    "lat":33.15361100,
    "lon":47.71361100
  },
  {
    "id":287,
    "province":26,
    "name":" خرم آباد",
    "lat":33.48777800,
    "lon":48.35583300
  },
  {
    "id":288,
    "province":26,
    "name":" دورود",
    "lat":33.49550280,
    "lon":49.06317430
  },
  {
    "id":289,
    "province":26,
    "name":" دلفان",
    "lat":33.50340140,
    "lon":48.35758360
  },
  {
    "id":290,
    "province":26,
    "name":" سلسله",
    "lat":32.04577600,
    "lon":34.75163900
  },
  {
    "id":291,
    "province":26,
    "name":" کوهدشت",
    "lat":33.53500000,
    "lon":47.60611100
  },
  {
    "id":292,
    "province":26,
    "name":" الشتر",
    "lat":33.86398880,
    "lon":48.26423870
  },
  {
    "id":293,
    "province":26,
    "name":" نورآباد",
    "lat":30.11416700,
    "lon":51.52166700
  },
  {
    "id":294,
    "province":27,
    "name":" آمل",
    "lat":36.46972200,
    "lon":52.35083300
  },
  {
    "id":295,
    "province":27,
    "name":" بابل",
    "lat":32.46819100,
    "lon":44.55019350
  },
  {
    "id":296,
    "province":27,
    "name":" بابلسر",
    "lat":36.70250000,
    "lon":52.65750000
  },
  {
    "id":297,
    "province":27,
    "name":" بهشهر",
    "lat":36.69222200,
    "lon":53.55250000
  },
  {
    "id":298,
    "province":27,
    "name":" تنکابن",
    "lat":36.81638900,
    "lon":50.87388900
  },
  {
    "id":299,
    "province":27,
    "name":" جویبار",
    "lat":36.64111100,
    "lon":52.91250000
  },
  {
    "id":300,
    "province":27,
    "name":" چالوس",
    "lat":36.64591740,
    "lon":51.40697900
  },
  {
    "id":301,
    "province":27,
    "name":" رامسر",
    "lat":36.90305600,
    "lon":50.65833300
  },
  {
    "id":302,
    "province":27,
    "name":" ساری",
    "lat":36.56333300,
    "lon":53.06000000
  },
  {
    "id":303,
    "province":27,
    "name":" سوادکوه",
    "lat":36.30402550,
    "lon":52.88524030
  },
  {
    "id":304,
    "province":27,
    "name":" قائم شهر",
    "lat":36.46305600,
    "lon":52.86000000
  },
  {
    "id":305,
    "province":27,
    "name":" گلوگاه",
    "lat":36.72722200,
    "lon":53.80888900
  },
  {
    "id":306,
    "province":27,
    "name":" محمود آباد",
    "lat":36.63194400,
    "lon":52.26277800
  },
  {
    "id":307,
    "province":27,
    "name":" نکا",
    "lat":36.65083300,
    "lon":53.29916700
  },
  {
    "id":308,
    "province":27,
    "name":" نور",
    "lat":50.38512460,
    "lon":3.26424360
  },
  {
    "id":309,
    "province":27,
    "name":" نوشهر",
    "lat":36.64888900,
    "lon":51.49611100
  },
  {
    "id":310,
    "province":27,
    "name":" فریدونکنار",
    "lat":36.68638900,
    "lon":52.52250000
  },
  {
    "id":311,
    "province":28,
    "name":" آشتیان",
    "lat":34.52194400,
    "lon":50.00611100
  },
  {
    "id":312,
    "province":28,
    "name":" اراک",
    "lat":34.09166700,
    "lon":49.68916700
  },
  {
    "id":313,
    "province":28,
    "name":" تفرش",
    "lat":34.69194400,
    "lon":50.01305600
  },
  {
    "id":314,
    "province":28,
    "name":" خمین",
    "lat":33.64061480,
    "lon":50.07711250
  },
  {
    "id":315,
    "province":28,
    "name":" دلیجان",
    "lat":33.99055600,
    "lon":50.68388900
  },
  {
    "id":316,
    "province":28,
    "name":" زرندیه",
    "lat":35.30699620,
    "lon":50.49117920
  },
  {
    "id":317,
    "province":28,
    "name":" ساوه",
    "lat":35.02138900,
    "lon":50.35666700
  },
  {
    "id":318,
    "province":28,
    "name":" شازند",
    "lat":33.92750000,
    "lon":49.41166700
  },
  {
    "id":319,
    "province":28,
    "name":" کمیجان",
    "lat":34.71916700,
    "lon":49.32666700
  },
  {
    "id":320,
    "province":28,
    "name":" محلات",
    "lat":33.90857480,
    "lon":50.45526160
  },
  {
    "id":321,
    "province":29,
    "name":" بندرعباس",
    "lat":27.18322160,
    "lon":56.26664550
  },
  {
    "id":322,
    "province":29,
    "name":" میناب",
    "lat":27.14666700,
    "lon":57.08000000
  },
  {
    "id":323,
    "province":29,
    "name":" بندر لنگه",
    "lat":26.55805600,
    "lon":54.88055600
  },
  {
    "id":324,
    "province":29,
    "name":" رودان-دهبارز",
    "lat":27.44083300,
    "lon":57.19250000
  },
  {
    "id":325,
    "province":29,
    "name":" جاسک",
    "lat":25.64388900,
    "lon":57.77444400
  },
  {
    "id":326,
    "province":29,
    "name":" قشم",
    "lat":26.81186730,
    "lon":55.89132070
  },
  {
    "id":327,
    "province":29,
    "name":" حاجی آباد",
    "lat":28.30916700,
    "lon":55.90166700
  },
  {
    "id":328,
    "province":29,
    "name":" ابوموسی",
    "lat":25.87971060,
    "lon":55.03280170
  },
  {
    "id":329,
    "province":29,
    "name":" بستک",
    "lat":27.19916700,
    "lon":54.36666700
  },
  {
    "id":330,
    "province":29,
    "name":" گاوبندی",
    "lat":27.20833300,
    "lon":53.03611100
  },
  {
    "id":331,
    "province":29,
    "name":" خمیر",
    "lat":26.95222200,
    "lon":55.58500000
  },
  {
    "id":332,
    "province":30,
    "name":" اسدآباد",
    "lat":34.78250000,
    "lon":48.11861100
  },
  {
    "id":333,
    "province":30,
    "name":" بهار",
    "lat":34.90832520,
    "lon":48.43927290
  },
  {
    "id":334,
    "province":30,
    "name":" تویسرکان",
    "lat":34.54805600,
    "lon":48.44694400
  },
  {
    "id":335,
    "province":30,
    "name":" رزن",
    "lat":35.38666700,
    "lon":49.03388900
  },
  {
    "id":336,
    "province":30,
    "name":" کبودر آهنگ",
    "lat":35.20833300,
    "lon":48.72388900
  },
  {
    "id":337,
    "province":30,
    "name":" ملایر",
    "lat":34.29694400,
    "lon":48.82361100
  },
  {
    "id":338,
    "province":30,
    "name":" نهاوند",
    "lat":34.18861100,
    "lon":48.37694400
  },
  {
    "id":339,
    "province":30,
    "name":" همدان",
    "lat":34.76079990,
    "lon":48.39881860
  },
  {
    "id":340,
    "province":31,
    "name":" ابرکوه",
    "lat":31.13040360,
    "lon":53.25037360
  },
  {
    "id":341,
    "province":31,
    "name":" اردکان",
    "lat":32.31000000,
    "lon":54.01750000
  },
  {
    "id":342,
    "province":31,
    "name":" بافق",
    "lat":31.61277800,
    "lon":55.41055600
  },
  {
    "id":343,
    "province":31,
    "name":" تفت",
    "lat":27.97890740,
    "lon":-97.39860410
  },
  {
    "id":344,
    "province":31,
    "name":" خاتم",
    "lat":37.27091520,
    "lon":49.59691460
  },
  {
    "id":345,
    "province":31,
    "name":" صدوق",
    "lat":32.02421620,
    "lon":53.47703590
  },
  {
    "id":346,
    "province":31,
    "name":" طبس",
    "lat":33.59583300,
    "lon":56.92444400
  },
  {
    "id":347,
    "province":31,
    "name":" مهریز",
    "lat":31.59166700,
    "lon":54.43166700
  },
  {
    "id":348,
    "province":31,
    "name":" میبد",
    "lat":32.24872260,
    "lon":54.00793410
  },
  {
    "id":349,
    "province":31,
    "name":" یزد",
    "lat":32.10063870,
    "lon":54.43421380
  }
]